city,country,latitude,longitude
New York,USA,40.7128,-74.0060
Los Angeles,USA,34.0522,-118.2437
Chicago,USA,41.8781,-87.6298
London,UK,51.5074,-0.1278
Paris,France,48.8566,2.3522
Berlin,Germany,52.5200,13.4050
Tokyo,Japan,35.6762,139.6503
Mumbai,India,19.0760,72.8777
Sydney,Australia,-33.8688,151.2093
São Paulo,Brazil,-23.5505,-46.6333
Cairo,Egypt,30.0444,31.2357
Moscow,Russia,55.7558,37.6173
Dubai,UAE,25.2048,55.2708
Singapore,Singapore,1.3521,103.8198
Toronto,Canada,43.6532,-79.3832
